{"type":"FeatureCollection", "features":[
    {"type":"Feature","id":"1","geometry":{"type":"Point","coordinates":[-2.253155,35.08]},"properties":{"Latitude":" 35.08","Longitude":" -2.253155","Name":" Ras_El Ma (Cabo del Agua )","Region":" Orientale","Province":" Nador","Ville":" Nador","Date_de_mi":" 1946","Type_du_ph":" Jalonnement","Caracteris":" Fl(2)W.6s","Portee_mil":" 8","Elevation_":" 09","Elevatio_1":" 43","Contact":" Tel : +212 5 38 00 52 01 . Fax : +212 5 37 75 00 11. www.equipementransport.gov.ma  \t\t\t\t\t"}},
    {"type":"Feature","id":"2","geometry":{"type":"Point","coordinates":[-2.96471,35.44]},"properties":{"Latitude":" 35.44","Longitude":" -2.96471","Name":" Ras Tleta Madari (Cap des trois fourches)","Region":" Orientale","Province":" Nador","Ville":" Nador","Date_de_mi":" 1927","Type_du_ph":" Atterrissage","Caracteris":" Fl(3+1)W.20s","Portee_mil":" 19","Elevation_":" 23","Elevatio_1":" 115","Contact":" Tel : +212 5 38 00 52 01 . Fax : +212 5 37 75 00 11. www.equipementransport.gov.ma  \t\t\t\t\t"}},
    {"type":"Feature","id":"3","geometry":{"type":"Point","coordinates":[-3.404966,35.16]},"properties":{"Latitude":" 35.16","Longitude":" -3.404966","Name":" Ras Tarf (Cabo Quilates)","Region":" Tanger_Tetouan_AlHoceima","Province":" Al Hoceima","Ville":" Al Hoceima","Date_de_mi":" 1930","Type_du_ph":" Jalonnement","Caracteris":" Fl(3)W.12s","Portee_mil":" 23","Elevation_":" 33","Elevatio_1":" 8","Contact":" Tel : +212 5 38 00 52 01 . Fax : +212 5 37 75 00 11. www.equipementransport.gov.ma  \t\t\t\t\t"}},
    {"type":"Feature","id":"4","geometry":{"type":"Point","coordinates":[-3.554573,35.15]},"properties":{"Latitude":" 35.15","Longitude":" -3.554573","Name":" Sidi Abed","Region":" Tanger_Tetouan_AlHoceima","Province":" Al Hoceima","Ville":" Al Hoceima","Date_de_mi":null,"Type_du_ph":" Atterrissage","Caracteris":" Fl(2)W.10s","Portee_mil":" 20","Elevation_":" 12","Elevatio_1":" 138.8","Contact":" Tel : +212 5 38 00 52 01 . Fax : +212 5 37 75 00 11. www.equipementransport.gov.ma  \t\t\t\t\t"}},
    {"type":"Feature","id":"5","geometry":{"type":"Point","coordinates":[-5.63166,35.28]},"properties":{"Latitude":" 35.28","Longitude":" -5.63166","Name":" Oued Laou","Region":" Tanger_Tetouan_AlHoceima","Province":" Tetouan","Ville":" Tetouan","Date_de_mi":" 1986","Type_du_ph":" Jalonnement","Caracteris":" Oc(2)W.6s","Portee_mil":" 18","Elevation_":" 15.8","Elevatio_1":" 135.8","Contact":" Tel : +212 5 38 00 52 01 . Fax : +212 5 37 75 00 11. www.equipementransport.gov.ma  \t\t\t\t\t"}},
    {"type":"Feature","id":"6","geometry":{"type":"Point","coordinates":[-5.162832,35.41]},"properties":{"Latitude":" 35.41","Longitude":" -5.162832","Name":" Ras el Aswad (Cabo Negro)","Region":" Tanger_Tetouan_AlHoceima","Province":" Tetouan","Ville":" Tetouan","Date_de_mi":null,"Type_du_ph":" Atterrissage","Caracteris":" Fl(2+1)W.12s","Portee_mil":" 20","Elevation_":" 6","Elevatio_1":" 200","Contact":" Tel : +212 5 38 00 52 01 . Fax : +212 5 37 75 00 11. www.equipementransport.gov.ma  \t\t\t\t\t"}},
    {"type":"Feature","id":"7","geometry":{"type":"Point","coordinates":[-5.481523,35.9]},"properties":{"Latitude":" 35.90","Longitude":" -5.481523","Name":" Ras Ciress( Punta Cires)","Region":" Tanger_Tetouan_AlHoceima","Province":" Tanger","Ville":" Tanger","Date_de_mi":null,"Type_du_ph":"Jalonnement","Caracteris":" Fl(3)W.12s","Portee_mil":" 18","Elevation_":" 8","Elevatio_1":" 46.5","Contact":" Tel : +212 5 38 00 52 01 . Fax : +212 5 37 75 00 11. www.equipementransport.gov.ma  \t\t\t\t\t"}},
    {"type":"Feature","id":"8","geometry":{"type":"Point","coordinates":[-5.74903,35.81]},"properties":{"Latitude":" 35.81","Longitude":" -5.74903","Name":" Pointe Malabata (Punta Malabata)","Region":" Tanger_Tetouan_AlHoceima","Province":" Tanger","Ville":" Tanger","Date_de_mi":" 1924","Type_du_ph":" Atterrissage","Caracteris":" Fl.W.5s","Portee_mil":" 22","Elevation_":" 15","Elevatio_1":" 76","Contact":" Tel : +212 5 38 00 52 01 . Fax : +212 5 37 75 00 11. www.equipementransport.gov.ma  \t\t\t\t\t"}},
    {"type":"Feature","id":"9","geometry":{"type":"Point","coordinates":[-5.7894,35.76]},"properties":{"Latitude":" 35.76","Longitude":" -5.78940","Name":" El Charf","Region":" Tanger_Tetouan_AlHoceima","Province":" Tanger","Ville":" Tanger","Date_de_mi":" 1949","Type_du_ph":" Jalonnement","Caracteris":" Oc(3)WRG.12s","Portee_mil":null,"Elevation_":" 8","Elevatio_1":" 101","Contact":" Tel : +212 5 38 00 52 01 . Fax : +212 5 37 75 00 11. www.equipementransport.gov.ma  \t\t\t\t\t"}},
    {"type":"Feature","id":"10","geometry":{"type":"Point","coordinates":[-5.92359,35.79]},"properties":{"Latitude":" 35.79","Longitude":" -5.92359","Name":" Ras Spartel (Cabo Espartel)","Region":" Tanger_Tetouan_AlHoceima","Province":" Tanger","Ville":" Tanger","Date_de_mi":" 1864","Type_du_ph":" Atterrissage","Caracteris":" Fl(4)W.20s","Portee_mil":" 30","Elevation_":" 25","Elevatio_1":" 95","Contact":" Tel : +212 5 38 00 52 01 . Fax : +212 5 37 75 00 11. www.equipementransport.gov.ma  \t\t\t\t\t"}},
    {"type":"Feature","id":"11","geometry":{"type":"Point","coordinates":[-6.16797,35.19]},"properties":{"Latitude":" 35.19","Longitude":" -6.16797","Name":" Nador Tip (Punta Nador)","Region":" Tanger_Tetouan_AlHoceima","Province":" Larache","Ville":" Larache","Date_de_mi":" 1929","Type_du_ph":" Atterrissage","Caracteris":" Fl(2)W.15s","Portee_mil":" 26","Elevation_":" 50","Elevatio_1":" 120","Contact":" Tel : +212 5 38 00 52 01 . Fax : +212 5 37 75 00 11. www.equipementransport.gov.ma  \t\t\t\t\t"}},
    {"type":"Feature","id":"12","geometry":{"type":"Point","coordinates":[-6.41001,34.62]},"properties":{"Latitude":" 34.62","Longitude":" -6.41001","Name":" Sidi al Hachmi al Bahraoui","Region":" Rabat_Sale_kénitra","Province":" Kenitra","Ville":" Kenitra","Date_de_mi":" 1990","Type_du_ph":" Jalonnement","Caracteris":" Fl(2)W.10s","Portee_mil":" 12","Elevation_":" 9","Elevatio_1":" 68","Contact":" Tel : +212 5 38 00 52 01 . Fax : +212 5 37 75 00 11. www.equipementransport.gov.ma  \t\t\t\t\t"}},
    {"type":"Feature","id":"13","geometry":{"type":"Point","coordinates":[-6.6595,34.26]},"properties":{"Latitude":" 34.26","Longitude":" -6.65950","Name":" Mehdia","Region":" Rabat_Sale_kénitra","Province":" Kenitra","Ville":" Kenitra","Date_de_mi":" 1917","Type_du_ph":" Atterrissage","Caracteris":" Oc(3)W.12s","Portee_mil":" 16","Elevation_":" 4","Elevatio_1":" 74","Contact":" Tel : +212 5 38 00 52 01 . Fax : +212 5 37 75 00 11. www.equipementransport.gov.ma  \t\t\t\t\t"}},
    {"type":"Feature","id":"14","geometry":{"type":"Point","coordinates":[-6.84425,34.03]},"properties":{"Latitude":" 34.03","Longitude":" -6.84425","Name":" Fort de la Calette","Region":" Rabat_Sale_kénitra","Province":" Rabat","Ville":" Rabat","Date_de_mi":" 1920","Type_du_ph":" Jalonnement","Caracteris":" Oc(2)W.6s","Portee_mil":" 16","Elevation_":" 20","Elevatio_1":" 31","Contact":" Tel : +212 5 38 00 52 01 . Fax : +212 5 37 75 00 11. www.equipementransport.gov.ma  \t\t\t\t\t"}},
    {"type":"Feature","id":"15","geometry":{"type":"Point","coordinates":[-7.56157,33.61]},"properties":{"Latitude":" 33.61","Longitude":" -7.56157","Name":" Oukacha","Region":" Casablanca_Settat","Province":" Casablanca","Ville":" Casablanca","Date_de_mi":" 1960","Type_du_ph":" Jalonnement","Caracteris":" Oc(2)W.6s","Portee_mil":" 18","Elevation_":" 20","Elevatio_1":" 30","Contact":" Tel : +212 5 38 00 52 01 . Fax : +212 5 37 75 00 11. www.equipementransport.gov.ma  \t\t\t\t\t"}},
    {"type":"Feature","id":"16","geometry":{"type":"Point","coordinates":[-7.57945,33.6]},"properties":{"Latitude":" 33.60","Longitude":" -7.57945","Name":" Roches Noires","Region":" Casablanca_Settat","Province":" Casablanca","Ville":" Casablanca","Date_de_mi":" 1920","Type_du_ph":" Jalonnement","Caracteris":" Oc.WR.4s","Portee_mil":null,"Elevation_":" 18","Elevatio_1":" 23","Contact":" Tel : +212 5 38 00 52 01 . Fax : +212 5 37 75 00 11. www.equipementransport.gov.ma  \t\t\t\t\t"}},
    {"type":"Feature","id":"17","geometry":{"type":"Point","coordinates":[-7.65463,33.61]},"properties":{"Latitude":" 33.61","Longitude":" -7.65463","Name":" Pointe de El Hank","Region":" Casablanca_Settat","Province":" Casablanca","Ville":" Casablanca","Date_de_mi":" 1920","Type_du_ph":" Atterrissage","Caracteris":" Fl(3)W.15s","Portee_mil":" 30","Elevation_":" 51","Elevatio_1":" 70","Contact":" Tel : +212 5 38 00 52 01 . Fax : +212 5 37 75 00 11. www.equipementransport.gov.ma  \t\t\t\t\t"}},
    {"type":"Feature","id":"18","geometry":{"type":"Point","coordinates":[-8.1818,33.2]},"properties":{"Latitude":" 33.20","Longitude":" -8.1818","Name":" Sidi Boubker","Region":" Casablanca_Settat","Province":" El Jadida","Ville":" El Jadida","Date_de_mi":" 1921","Type_du_ph":" Jalonnement","Caracteris":" Fl(2)WR.6s","Portee_mil":null,"Elevation_":" 13","Elevatio_1":" 4","Contact":" Tel : +212 5 38 00 52 01 . Fax : +212 5 37 75 00 11. www.equipementransport.gov.ma  \t\t\t\t\t"}},
    {"type":"Feature","id":"19","geometry":{"type":"Point","coordinates":[-8.43712,33.24]},"properties":{"Latitude":" 33.24","Longitude":" -8.43712","Name":" Sidi Mesbah","Region":" Casablanca_Settat","Province":" El Jadida","Ville":" El Jadida","Date_de_mi":" 1921","Type_du_ph":" Jalonnement","Caracteris":" Oc(2)WR.6s","Portee_mil":null,"Elevation_":" 17","Elevatio_1":" 52","Contact":" Tel : +212 5 38 00 52 01 . Fax : +212 5 37 75 00 11. www.equipementransport.gov.ma  \t\t\t\t\t"}},
    {"type":"Feature","id":"20","geometry":{"type":"Point","coordinates":[-8.51623,33.25]},"properties":{"Latitude":" 33.25","Longitude":" -8.51623","Name":" Sidi Bou Afi","Region":" Casablanca_Settat","Province":" El Jadida","Ville":" El Jadida","Date_de_mi":" 1916","Type_du_ph":" Atterrissage","Caracteris":" Fl(1).W.5s","Portee_mil":" 30","Elevation_":" 45","Elevatio_1":" 65","Contact":" Tel : +212 5 38 00 52 01 . Fax : +212 5 37 75 00 11. www.equipementransport.gov.ma  \t\t\t\t\t"}},
    {"type":"Feature","id":"21","geometry":{"type":"Point","coordinates":[-8.50343,33.26]},"properties":{"Latitude":" 33.26","Longitude":" -8.50343","Name":" Sidi Daoui","Region":" Casablanca_Settat","Province":" El Jadida","Ville":" El Jadida","Date_de_mi":" 2001","Type_du_ph":" Jalonnement","Caracteris":" Fl(2)W.10s","Portee_mil":" 10","Elevation_":" 10","Elevatio_1":" 14","Contact":" Tel : +212 5 38 00 52 01 . Fax : +212 5 37 75 00 11. www.equipementransport.gov.ma  \t\t\t\t\t"}},
    {"type":"Feature","id":"22","geometry":{"type":"Point","coordinates":[-8.62807,33.16]},"properties":{"Latitude":" 33.16","Longitude":" -8.62807","Name":" Ras Jorf Lasfar (Cap Blanc)","Region":" Casablanca_Settat","Province":" El Jadida","Ville":" El Jadida","Date_de_mi":null,"Type_du_ph":" Atterrissage","Caracteris":" Oc.WR.6s","Portee_mil":null,"Elevation_":" 17","Elevatio_1":" 31","Contact":" Tel : +212 5 38 00 52 01 . Fax : +212 5 37 75 00 11. www.equipementransport.gov.ma  \t\t\t\t\t"}},
    {"type":"Feature","id":"23","geometry":{"type":"Point","coordinates":[-8.573687,32.47]},"properties":{"Latitude":" 32.47","Longitude":" -8.573687","Name":" Lalla Fatna","Region":" Casablanca_Settat","Province":" El Jadida","Ville":" El Jadida","Date_de_mi":" 2003","Type_du_ph":" Jalonnement","Caracteris":" Fl(3)W.12s","Portee_mil":" 20","Elevation_":" 30","Elevatio_1":" 50","Contact":" Tel : +212 5 38 00 52 01 . Fax : +212 5 37 75 00 11. www.equipementransport.gov.ma  \t\t\t\t\t"}},
    {"type":"Feature","id":"24","geometry":{"type":"Point","coordinates":[-9.2805,32.54]},"properties":{"Latitude":" 32.54","Longitude":" -9.28050","Name":" Cap Beddouza(Cantin)","Region":" Marrakech_Safi","Province":" Safi","Ville":" Safi","Date_de_mi":" 1916","Type_du_ph":" Jalonnement","Caracteris":" Fl(2)W.10s","Portee_mil":" 22","Elevation_":" 18","Elevatio_1":" 68","Contact":" Tel : +212 5 38 00 52 01 . Fax : +212 5 37 75 00 11. www.equipementransport.gov.ma  \t\t\t\t\t"}},
    {"type":"Feature","id":"25","geometry":{"type":"Point","coordinates":[-9.27951,32.33]},"properties":{"Latitude":" 32.33","Longitude":" -9.27951","Name":"Borj Nador","Region":" Marrakech_Safi","Province":" Safi","Ville":" Safi","Date_de_mi":" 1957","Type_du_ph":" Atterrissage","Caracteris":" Fl(4)W.12s","Portee_mil":" 18","Elevation_":" 11","Elevatio_1":" 92","Contact":" Tel : +212 5 38 00 52 01 . Fax : +212 5 37 75 00 11. www.equipementransport.gov.ma  \t\t\t\t\t"}},
    {"type":"Feature","id":"26","geometry":{"type":"Point","coordinates":[-9.76403,31.49]},"properties":{"Latitude":" 31.49","Longitude":" -9.76403","Name":" Sidi Megdoul","Region":" Marrakech_Safi","Province":" Essaouira","Ville":" Essaouira","Date_de_mi":" 1916","Type_du_ph":" Atterrissage","Caracteris":" Oc.WRG.12s","Portee_mil":null,"Elevation_":" 15","Elevatio_1":" 19","Contact":" Tel : +212 5 38 00 52 01 . Fax : +212 5 37 75 00 11. www.equipementransport.gov.ma  \t\t\t\t\t"}},
    {"type":"Feature","id":"27","geometry":{"type":"Point","coordinates":[-9.822979,31.39]},"properties":{"Latitude":" 31.39","Longitude":" -9.822979","Name":" Cap Sim","Region":" Marrakech_Safi","Province":" Essaouira","Ville":" Essaouira","Date_de_mi":" 1917","Type_du_ph":" Atterrissage","Caracteris":" Fl(3)W.15s","Portee_mil":" 21","Elevation_":" 15","Elevatio_1":" 103","Contact":" Tel : +212 5 38 00 52 01 . Fax : +212 5 37 75 00 11. www.equipementransport.gov.ma  \t\t\t\t\t"}},
    {"type":"Feature","id":"28","geometry":{"type":"Point","coordinates":[-9.8824,30.63]},"properties":{"Latitude":" 30.63","Longitude":" -9.88240","Name":" Cap Ghir","Region":" Souss_Massa","Province":" Agadir","Ville":" Agadir","Date_de_mi":" 1932","Type_du_ph":" Atterrissage","Caracteris":" Fl.W.5s","Portee_mil":" 22","Elevation_":" 26","Elevatio_1":" 86","Contact":" Tel : +212 5 38 00 52 01 . Fax : +212 5 37 75 00 11. www.equipementransport.gov.ma  \t\t\t\t\t"}},
    {"type":"Feature","id":"29","geometry":{"type":"Point","coordinates":[-9.98008,29.7]},"properties":{"Latitude":" 29.70","Longitude":" -9.98008","Name":" Cap Jellab","Region":" Souss_Massa","Province":" Tiznit","Ville":" Tiznit","Date_de_mi":" 2004","Type_du_ph":" Jalonnement","Caracteris":" Fl(2+1)W.12s","Portee_mil":" 20","Elevation_":" 20","Elevatio_1":" 60","Contact":" Tel : +212 5 38 00 52 01 . Fax : +212 5 37 75 00 11. www.equipementransport.gov.ma  \t\t\t\t\t"}},
    {"type":"Feature","id":"30","geometry":{"type":"Point","coordinates":[-10.17806,29.38]},"properties":{"Latitude":" 29.38","Longitude":" -10.17806","Name":" Sidi Ifni","Region":" Guelmim_Oued_Noun","Province":" sidi ifni","Ville":" sidi ifni","Date_de_mi":" 1949","Type_du_ph":" Atterrissage","Caracteris":" Fl(3+1)W.30s","Portee_mil":" 25","Elevation_":" 13","Elevatio_1":" 60","Contact":" Tel : +212 5 38 00 52 01 . Fax : +212 5 37 75 00 11. www.equipementransport.gov.ma  \t\t\t\t\t"}},
    {"type":"Feature","id":"31","geometry":{"type":"Point","coordinates":[-11.07282,28.4]},"properties":{"Latitude":" 28.40","Longitude":" -11.07282","Name":" Cap Draa","Region":" Guelmim_Oued_Noun","Province":" Tan tan","Ville":" Tan tan","Date_de_mi":" 1999","Type_du_ph":" Jalonnement","Caracteris":" Fl(2)W.5s","Portee_mil":" 25","Elevation_":" 33","Elevatio_1":" 87","Contact":" Tel : +212 5 38 00 52 01 . Fax : +212 5 37 75 00 11. www.equipementransport.gov.ma  \t\t\t\t\t"}},
    {"type":"Feature","id":"32","geometry":{"type":"Point","coordinates":[-11.21,28.3]},"properties":{"Latitude":" 28.30","Longitude":" -11.21","Name":" Cap Nachtigal","Region":" Guelmim_Oued_Noun","Province":" Tan tan","Ville":" Tan tan","Date_de_mi":" 1977","Type_du_ph":" Atterrissage","Caracteris":" Fl.W.5s","Portee_mil":" 15","Elevation_":" 8.75","Elevatio_1":" 40.75","Contact":" Tel : +212 5 38 00 52 01 . Fax : +212 5 37 75 00 11. www.equipementransport.gov.ma  \t\t\t\t\t"}},
    {"type":"Feature","id":"33","geometry":{"type":"Point","coordinates":[-12.92294,27.94]},"properties":{"Latitude":" 27.94","Longitude":" -12.92294","Name":" TARFAYA (CABO YUBI)","Region":" Laayoune_Saquia_Al_Hamra","Province":" Tarfaya","Ville":" Tarfaya","Date_de_mi":" 1986","Type_du_ph":" Atterrissage","Caracteris":" Fl(2)W.5s","Portee_mil":" 20","Elevation_":" 13.4","Elevatio_1":null,"Contact":" Tel : +212 5 38 00 52 01 . Fax : +212 5 37 75 00 11. www.equipementransport.gov.ma  \t\t\t\t\t"}},
    {"type":"Feature","id":"34","geometry":{"type":"Point","coordinates":[-14.104809,26.25]},"properties":{"Latitude":" 26.25","Longitude":" -14.104809","Name":" Cap 5 (Aghti El Ghazi)","Region":" Laayoune_Saquia_Al_Hamra","Province":" Boujdour","Ville":" Boujdour","Date_de_mi":null,"Type_du_ph":" Jalonnement","Caracteris":" Fl(3)W.12s","Portee_mil":" 9","Elevation_":" 32","Elevatio_1":" 32","Contact":" Tel : +212 5 38 00 52 01 . Fax : +212 5 37 75 00 11. www.equipementransport.gov.ma  \t\t\t\t\t"}},
    {"type":"Feature","id":"35","geometry":{"type":"Point","coordinates":[-14.43163,26.23]},"properties":{"Latitude":" 26.23","Longitude":" -14.43163","Name":" Cap Boujdour (Cabo Boujdour)","Region":" Laayoune_Saquia_Al_Hamra","Province":" Boujdour","Ville":" Boujdour","Date_de_mi":" 1956","Type_du_ph":" Atterrissage","Caracteris":" Fl(3)W.15s","Portee_mil":" 24","Elevation_":" 52","Elevatio_1":" 70","Contact":" Tel : +212 5 38 00 52 01 . Fax : +212 5 37 75 00 11. www.equipementransport.gov.ma  \t\t\t\t\t"}},
    {"type":"Feature","id":"36","geometry":{"type":"Point","coordinates":[-14.411682,25.35]},"properties":{"Latitude":" 25.35","Longitude":" -14.411682","Name":" Cap 7(Aftissat)","Region":" Laayoune_Saquia_Al_Hamra","Province":" Boujdour","Ville":" Boujdour","Date_de_mi":null,"Type_du_ph":" Jalonnement","Caracteris":" Fl(2)W.9s","Portee_mil":" 9","Elevation_":" 12","Elevatio_1":" 70","Contact":" Tel : +212 5 38 00 52 01 . Fax : +212 5 37 75 00 11. www.equipementransport.gov.ma  \t\t\t\t\t"}},
    {"type":"Feature","id":"37","geometry":{"type":"Point","coordinates":[-14.500582,25.05]},"properties":{"Latitude":" 25.05","Longitude":" -14.500582","Name":" Cap 8(Nouifed)","Region":" Laayoune_Saquia_Al_Hamra","Province":" Boujdour","Ville":" Boujdour","Date_de_mi":null,"Type_du_ph":" Jalonnement","Caracteris":" Fl(4)W.15s","Portee_mil":" 9","Elevation_":" 12","Elevatio_1":" 173","Contact":" Tel : +212 5 38 00 52 01 . Fax : +212 5 37 75 00 11. www.equipementransport.gov.ma  \t\t\t\t\t"}},
    {"type":"Feature","id":"38","geometry":{"type":"Point","coordinates":[-15.571518,23.43]},"properties":{"Latitude":" 23.43","Longitude":" -15.571518","Name":" Arcipres Grande","Region":" Dakhla_Oued_Dahab","Province":" Oued dahab","Ville":" Dakhla","Date_de_mi":" 1916","Type_du_ph":" Atterrissage","Caracteris":" Fl.W.5s","Portee_mil":" 20","Elevation_":" 56","Elevatio_1":" 86","Contact":" Tel : +212 5 38 00 52 01 . Fax : +212 5 37 75 00 11. www.equipementransport.gov.ma  \t\t\t\t\t"}},
    {"type":"Feature","id":"39","geometry":{"type":"Point","coordinates":[-16.4037,22.17]},"properties":{"Latitude":" 22.17","Longitude":" -16.4037","Name":" Cabo Barbas","Region":" Dakhla_Oued_Dahab","Province":" Oued dahab","Ville":"Dakhla","Date_de_mi":" 1969","Type_du_ph":" Jalonnement","Caracteris":" Fl(3)W.12s","Portee_mil":" 9","Elevation_":" 44","Elevatio_1":" 54","Contact":" Tel : +212 5 38 00 52 01 . Fax : +212 5 37 75 00 11. www.equipementransport.gov.ma  \t\t\t\t\t"}}
    ]}
    
    
    
    